[{"name": "2020苏州M_DSK跨年限定日", "city": "苏州", "date": "2020.12.31-2021.01.01", "actor": "满舒克、黄旭、王以太、万妮达", "state": "售票中", "location": "苏州相城活力岛", "low_price": "260", "high_price": "720"},
{"name": "七彩云南·2020五百里音乐节", "city": "昆明", "date": "2020.11.28-11.29", "actor": "痛仰乐队、宋冬野、陈粒、五条人、Tizzy T、满舒克、木马乐队、马赛克、霓虹花园、焦迈奇", "state": "售票中", "location": "云南省昆明市晋宁区环湖南路古滇精品湿地公园", "low_price": "260", "high_price": "560"},
{"name": "2020国潮音乐嘉年华 苏州站", "city": "苏州", "date": "2020.11.21-11.22", "actor": "张信哲、赵雷、爽子、李紫婷、张韶涵、太一、陈立农、毛不易、SUNNEE、孟子坤", "state": "售票中", "location": "苏州太湖园博园景区", "low_price": "488", "high_price": "688"},
{"name": "神武4·动感地带第十四届音乐盛典咪咕汇（线上直播）", "city": "广州", "date": "2020.12.05 周六 18:30", "actor": "", "state": "售票中", "location": "广州宝能观致文化中心", "low_price": "2", "high_price": "88"},
{"name": "杭盖乐队《北归》摇滚与铜管音乐会", "city": "北京", "date": "2020.12.04-12.05", "actor": "", "state": "售票中", "location": "天桥艺术中心-大剧场", "low_price": "99", "high_price": "1376"},
{"name": "王北车·N·2020巡回演唱会", "city": "杭州", "date": "2020.12.26 周六 20:00", "actor": "", "state": "售票中", "location": "大麦66LiveHouse杭州", "low_price": "280", "high_price": "280"},
{"name": "2020嘉善大云·云上乡村音乐节", "city": "嘉兴", "date": "2020.11.21 周六 15:00", "actor": "许巍", "state": "售票中", "location": "嘉兴嘉善县云澜湾温泉景区", "low_price": "199", "high_price": "299"},
{"name": "2020青秀·绿野音乐节", "city": "南宁", "date": "2020.12.04-12.06", "actor": "", "state": "售票中", "location": "南宁青秀山东区大草坪", "low_price": "50", "high_price": "328"},
{"name": "王以太2020苏州站 12月05日苏州MYSTLAND", "city": "苏州", "date": "2020.12.05 周六 21:30", "actor": "", "state": "售票中", "location": "MYSTLAND酒吧", "low_price": "98", "high_price": "98"},
{"name": "2020“平安夜一起来听歌”圣诞演唱会-唯有浪漫不可辜负", "city": "杭州", "date": "2020.12.24 周四 19:30", "actor": "", "state": "售票中", "location": "酒球会(9-Club)", "low_price": "180", "high_price": "299"},
{"name": "《不知所措》《善变》《爱，存在》原唱——王靖雯个人专场 邀你一起现场感受情歌魅力", "city": "武汉", "date": "2020.12.13 周日 20:30", "actor": "", "state": "售票中", "location": "L7 Livehouse(珞狮路南国大家装A2栋三层)", "low_price": "80", "high_price": "100"},
{"name": "野外合作社「如何在风中」浸入式音乐会 杭州站", "city": "杭州", "date": "2020.11.21 周六 20:30", "actor": "", "state": "售票中", "location": "酒球会@目里空间", "low_price": "200", "high_price": "450"},
{"name": "王北车•N•2020巡回演唱会", "city": "西安", "date": "2020.12.20 周日 20:00", "actor": "", "state": "售票中", "location": "星球工厂LIVEHOUSE", "low_price": "280", "high_price": "280"},
{"name": "裘德“巡演的时候我要「缺席」” 北京站", "city": "北京", "date": "2020.12.27 周日 20:00", "actor": "", "state": "售票中", "location": "疆进酒·OMNI SPACE", "low_price": "120", "high_price": "120"},
{"name": "南游记乐队“孤独演说家”2021新年演唱会", "city": "南京", "date": "2020.12.19 周六 19:30", "actor": "", "state": "售票中", "location": "江苏荔枝大剧院", "low_price": "120", "high_price": "480"},
{"name": "亚洲首场冬季SKI滑雪电音嘉年华", "city": "吉林", "date": "2020.12.11-12.12", "actor": "", "state": "售票中", "location": "吉林万科松花湖度假区", "low_price": "380", "high_price": "1080"},
{"name": "2020“平安夜一起来听歌”圣诞演唱会-唯有浪漫不可辜负", "city": "北京", "date": "2020.12.24 周四 19:30", "actor": "", "state": "售票中", "location": "糖果TANGO-雍和宫店三层", "low_price": "180", "high_price": "580"},
{"name": "中国之夜—DM电音节", "city": "柳州", "date": "2020.11.22 周日", "actor": "", "state": "售票中", "location": "柳州体育中心体育场", "low_price": "99", "high_price": "299"},
{"name": "NONG ARCHIVE TOUR PART.2 武汉站", "city": "武汉", "date": "2020.11.21 周六 20:30", "actor": "", "state": "售票中", "location": "不晚IN TIME LIVE", "low_price": "200", "high_price": "200"},
{"name": "2020“平安夜一起来听歌”圣诞演唱会-深圳站", "city": "深圳", "date": "2020.12.24 周四 19:30", "actor": "", "state": "售票中", "location": "深圳市南山区A8音乐大厦二层A8Live", "low_price": "180", "high_price": "580"},
{"name": "Click#15疯客与舞蹈FUNK ＆ DANCE 2020巡演   南京站", "city": "南京", "date": "2020.11.26 周四 20:30", "actor": "", "state": "售票中", "location": "南京-稻香音乐空间", "low_price": "200", "high_price": "200"},
{"name": "2020.12.12【西演live呈现 】joyside乐队西安特别专场", "city": "西安", "date": "2020.12.12 周六 20:30", "actor": "", "state": "售票中", "location": "西演LIVE·1935LIVEHOUSE", "low_price": "240", "high_price": "280"},
{"name": "2020太湖迷笛跨年夜", "city": "无锡", "date": "2020.12.31-2021.01.01", "actor": "RollingZoos、LOFT BEACH", "state": "售票中", "location": "寅派动力(无锡)新文化空间", "low_price": "230", "high_price": "230"},
{"name": "徐真真《我不是渣 你不是她》2020巡演 上海站", "city": "上海", "date": "2020.11.29 周日 20:30", "actor": "", "state": "售票中", "location": "MAO Livehouse上海", "low_price": "120", "high_price": "250"},
{"name": "【中国新说唱、说唱听我的 人气选手】 出来玩er·全国巡演 南京站", "city": "南京", "date": "2021.01.08 周五 20:00", "actor": "", "state": "售票中", "location": "南京-稻香音乐空间", "low_price": "220", "high_price": "380"},
{"name": "刺猬现场* 2020巡回演出—西安站", "city": "西安", "date": "2020.11.28 周六 20:00", "actor": "", "state": "售票中", "location": "西演LIVE·大华1935玖剧场", "low_price": "328", "high_price": "328"},
{"name": "Kanna Bush孟子坤 2020「坎纳布什的峡谷」限定演出", "city": "杭州", "date": "2020.12.12 周六 20:00", "actor": "孟子坤", "state": "售票中", "location": "大麦66LiveHouse杭州", "low_price": "369", "high_price": "521"},
{"name": "打扰一下乐团 2020“世界不会轻易崩塌”全国巡演—佛山站", "city": "佛山", "date": "2020.12.26 周六 20:00", "actor": "", "state": "售票中", "location": "佛山国际体育文化演艺中心副馆", "low_price": "160", "high_price": "280"},
{"name": "聚橙主办｜“从心出发”王铮亮个人全国巡回演唱会", "city": "苏州", "date": "2020.12.04 周五 19:30", "actor": "", "state": "售票中", "location": "苏州聚橙尹山湖大剧院", "low_price": "50", "high_price": "380"},
{"name": "2020“平安夜一起来听歌”圣诞演唱会-唯有浪漫不可辜负", "city": "广州", "date": "2020.12.24 周四 19:30", "actor": "", "state": "售票中", "location": "MAO Livehouse广州", "low_price": "180", "high_price": "299"},
{"name": "【酒水畅饮】夜猫歌舞厅 杀马特文艺复兴派对", "city": "西安", "date": "2020.11.21-11.22", "actor": "", "state": "售票中", "location": "MAO Livehouse西安", "low_price": "20", "high_price": "199"},
{"name": "上海 | Blue Note Shanghai 音乐剧之夜 第三场 11月25日", "city": "上海", "date": "2020.11.25 周三 19:30", "actor": "", "state": "售票中", "location": "Blue Note Shanghai", "low_price": "199", "high_price": "199"},
{"name": "白日密语+重返袖珍时光+二区六楼—菠萝乐场10周年 take 2", "city": "西安", "date": "2020.11.21 周六 20:00", "actor": "", "state": "售票中", "location": "西安创矩音乐现场", "low_price": "120", "high_price": "218"},
{"name": "Click#15疯客与舞蹈2.0 2020全国巡演（山西站）", "city": "太原", "date": "2020.12.31 周四 19:30", "actor": "", "state": "售票中", "location": "山西大剧院", "low_price": "180", "high_price": "515"},
{"name": "周云蓬与乐队「否极泰来」2020巡演 重庆站", "city": "重庆", "date": "2020.12.06 周日 20:30", "actor": "", "state": "售票中", "location": "坚果LIVEHOUSE", "low_price": "150", "high_price": "150"},
{"name": "爆笑脱口秀演出-喜剧联盒国", "city": "上海", "date": "2020.11.22-12.19", "actor": "Storm Xu（脱口秀演员）", "state": "售票中", "location": "猫悦上城OmS中剧场", "low_price": "180", "high_price": "180"},
{"name": "爆笑脱口秀演出-喜剧联盒国", "city": "上海", "date": "2020.11.28-12.12", "actor": "Storm Xu（脱口秀演员）", "state": "售票中", "location": "Blue Note Shanghai", "low_price": "180", "high_price": "180"},
{"name": "2020圣诞超级枕头大战-全程高能一战入魂 无锡站", "city": "无锡", "date": "2020.12.25 周五 19:30", "actor": "", "state": "售票中", "location": "寅派动力(无锡)新文化空间", "low_price": "128", "high_price": "228"},
{"name": "《光辉的岁月·纪念黄家驹逝世27载》巡回演唱会 杭州安可站", "city": "杭州", "date": "2020.12.30 周三 20:30", "actor": "", "state": "售票中", "location": "MAO Livehouse杭州", "low_price": "168", "high_price": "268"},
{"name": "「浪漫制造器」和平饭店 / 温和治疗 / 桃子假象Lite / 帆布小镇", "city": "珠海", "date": "2020.12.24 周四 19:30", "actor": "", "state": "售票中", "location": "珠海乐坊Livehouse", "low_price": "150", "high_price": "260"},
{"name": "果味VC「拥抱之城」2020全国巡演-杭州站", "city": "杭州", "date": "2020.11.29 周日 20:30", "actor": "果味VC", "state": "售票中", "location": "MAO Livehouse杭州", "low_price": "99", "high_price": "120"},
{"name": "MOJOHAND 2020/2021新专辑巡演 无锡站", "city": "无锡", "date": "2021.01.16 周六 20:00", "actor": "", "state": "售票中", "location": "寅派动力(无锡)新文化空间", "low_price": "100", "high_price": "120"},
{"name": "“遗忘之潮”2020后摇联合巡演 济南站", "city": "济南", "date": "2020.11.21 周六 20:30", "actor": "", "state": "售票中", "location": "班卓音乐酒吧", "low_price": "100", "high_price": "100"},
{"name": "【秀动呈献】十七草×lambert「YOUNG BOSS」巡演 南京站", "city": "南京", "date": "2020.12.27 周日 20:30", "actor": "", "state": "售票中", "location": "欧拉艺术空间", "low_price": "80", "high_price": "80"},
{"name": "YOUNG ARTISTS", "city": "西安", "date": "2020.11.26 周四 20:30", "actor": "", "state": "售票中", "location": "西安创矩音乐现场", "low_price": "40", "high_price": "70"},
{"name": "津味儿摇滚之夜 李亮节摇滚大鼓新年音乐会", "city": "天津", "date": "2021.01.24 周日 19:30", "actor": "", "state": "售票中", "location": "大麦66LiveHouse天津", "low_price": "40", "high_price": "200"},
{"name": "抖in广州·粤潮制燥", "city": "广州", "date": "2020.11.28-11.29", "actor": "", "state": "售票中", "location": "BIG海珠湾艺术园", "low_price": "0", "high_price": "0"},
{"name": "与她生活节Pro 杭州站", "city": "杭州", "date": "2020.12.25 周五 20:00", "actor": "", "state": "售票中", "location": "MAO Livehouse杭州", "low_price": "220", "high_price": "220"},
{"name": "葡萄合唱团PRO(葡萄不愤怒X新学校废物合唱团)联合巡演 西安站", "city": "西安", "date": "2020.11.28 周六 20:30", "actor": "", "state": "售票中", "location": "星球工厂LIVEHOUSE", "low_price": "150", "high_price": "150"},
{"name": "神木飞行2020巡演-成都站", "city": "成都", "date": "2020.11.28 周六 20:30", "actor": "", "state": "售票中", "location": "CH8冇独空间·东郊记忆店", "low_price": "80", "high_price": "150"},
{"name": "2020异国人《沈沒紀事》巡演 杭州站", "city": "杭州", "date": "2020.12.03 周四 20:00", "actor": "", "state": "售票中", "location": "酒球会(9-Club)", "low_price": "100", "high_price": "120"},
{"name": "西南之南2020声音碎片巡演 天津站", "city": "天津", "date": "2020.12.04 周五 20:00", "actor": "", "state": "售票中", "location": "大麦66LiveHouse天津", "low_price": "150", "high_price": "150"},
{"name": "【秀动呈献】白皮书乐队《我不高兴》2020巡演 临沂站", "city": "临沂", "date": "2021.03.19 周五 20:30", "actor": "白皮书乐队", "state": "售票中", "location": "老橡树艺术空间", "low_price": "100", "high_price": "100"},
{"name": "2020圣诞超级枕头大战-全程高能一战入魂 苏州站", "city": "苏州", "date": "2020.12.25 周五 19:30", "actor": "", "state": "售票中", "location": "山丘咖啡HillHouse", "low_price": "128", "high_price": "228"},
{"name": "笑丫喜剧- 奇咖秀（相爷府解压脱口秀）", "city": "上海", "date": "2020.11.23-11.30", "actor": "", "state": "售票中", "location": "相爷府茶楼-五楼", "low_price": "1", "high_price": "49"},
{"name": "【秀动呈献】“帝心引力”2020 KOZAY巡演   西安站", "city": "西安", "date": "2021.01.09 周六 20:30", "actor": "", "state": "售票中", "location": "MAO Livehouse西安", "low_price": "138", "high_price": "228"},
{"name": "MOJOHAND 2020/2021新专辑全国巡演-呼和浩特站", "city": "呼和浩特", "date": "2020.12.24 周四 20:30", "actor": "", "state": "售票中", "location": "WHOHOT LIVEHOUSE", "low_price": "100", "high_price": "120"},
{"name": "2020圣诞超级枕头大战-全程高能一战入魂", "city": "天津", "date": "2020.12.25 周五", "actor": "", "state": "售票中", "location": "二十年音乐现场", "low_price": "128", "high_price": "228"},
{"name": "一路飘绿 开往寒冬 曾雪雅 “我凉了” 2020巡演 深圳站", "city": "深圳", "date": "2020.12.09 周三 20:00", "actor": "曾雪雅", "state": "售票中", "location": "深圳 HOU LIVE", "low_price": "80", "high_price": "80"},
{"name": "幻想天空电子音乐派对 北京站", "city": "北京", "date": "2020.12.12-12.13", "actor": "", "state": "售票中", "location": "MAO Livehouse北京", "low_price": "69", "high_price": "69"},
{"name": "【珍珠剧场】英伦狂潮摇滚之夜", "city": "上海", "date": "2020.11.26 周四 21:00", "actor": "", "state": "售票中", "location": "珍珠剧场The Pearl", "low_price": "100", "high_price": "100"},
{"name": "热斑2020《NOT BAD》新专辑巡演 武汉站", "city": "武汉", "date": "2020.11.25 周三 20:30", "actor": "", "state": "售票中", "location": "VOX LIVEHOUSE 武昌店", "low_price": "80", "high_price": "100"},
{"name": "上海 | Blue Note Shanghai 音乐剧之夜 第四场", "city": "上海", "date": "2020.12.09 周三 19:30", "actor": "", "state": "售票中", "location": "Blue Note Shanghai", "low_price": "199", "high_price": "199"},
{"name": "蜂花国潮之夜霍尊游园线上演唱会", "city": "北京", "date": "2020.11.03-2021.01.02", "actor": "", "state": "售票中", "location": "请到大麦APP和优酷APP观看", "low_price": "25", "high_price": "25"},
{"name": "一代人终老去 Beyond永远年轻", "city": "天津", "date": "2021.01.31 周日 19:30", "actor": "", "state": "售票中", "location": "大麦66LiveHouse天津", "low_price": "40", "high_price": "150"},
{"name": "【林肯爵士乐上海中心】1127-1128 Yusuf五重奏", "city": "上海", "date": "2020.11.27-11.28", "actor": "", "state": "售票中", "location": "林肯爵士乐上海中心", "low_price": "180", "high_price": "180"},
{"name": "「怦怦」刘莱斯2020巡演 上海站", "city": "上海", "date": "2020.12.04 周五 20:30", "actor": "", "state": "售票中", "location": "MAO Livehouse上海", "low_price": "120", "high_price": "198"},
{"name": "沼泽乐队「风知我」二〇二〇年巡演 深圳站", "city": "深圳", "date": "2020.12.05 周六 20:30", "actor": "", "state": "售票中", "location": "深圳 HOU LIVE", "low_price": "130", "high_price": "130"},
{"name": "“爱乐之海”说唱联合专场", "city": "珠海", "date": "2020.11.29 周日 20:00", "actor": "", "state": "售票中", "location": "珠海乐坊Livehouse", "low_price": "150", "high_price": "200"},
{"name": "《光辉的岁月.纪念黄家驹逝世27载》巡回演唱会", "city": "武汉", "date": "2020.12.26 周六 20:30", "actor": "", "state": "售票中", "location": "L7 Livehouse(珞狮路南国大家装A2栋三层)", "low_price": "168", "high_price": "228"},
{"name": "2020真的爱你-致敬BEYOND·黄家驹演唱会", "city": "长沙", "date": "2020.12.04 周五 19:30", "actor": "", "state": "售票中", "location": "红节奏音乐俱乐部", "low_price": "180", "high_price": "480"},
{"name": "MOJOHAND 2020新专辑巡演 哈尔滨站", "city": "哈尔滨", "date": "2020.11.22 周日 19:00", "actor": "", "state": "售票中", "location": "SUBLIVE", "low_price": "120", "high_price": "120"},
{"name": "【秀动呈献】Carsick Cars 2020“晕”巡演 西安站", "city": "西安", "date": "2020.12.04 周五 20:30", "actor": "", "state": "售票中", "location": "MAO Livehouse西安", "low_price": "150", "high_price": "150"},
{"name": "「秋游要去动物园 Fall Reverb In The Zoo」2020动物园钉子户巡演 合肥站", "city": "合肥", "date": "2020.12.12 周六 20:30", "actor": "", "state": "售票中", "location": "ON THE WAY LIVEHOUSE", "low_price": "100", "high_price": "100"},
{"name": "“致敬经典”孙砾，王庆爽演唱会", "city": "南昌", "date": "2020.11.25 周三 19:45", "actor": "", "state": "售票中", "location": "江西艺术中心音乐厅", "low_price": "160", "high_price": "280"},
{"name": "不速之客＜年轻&危险＞十周年全国巡演大连站", "city": "大连", "date": "2020.12.03 周四 20:30", "actor": "", "state": "售票中", "location": "赫兹音乐空间(黑石礁店)", "low_price": "100", "high_price": "120"},
{"name": "【全场畅饮】雨木——红色的海 新歌发布专场演出", "city": "北京", "date": "2020.11.25 周三 20:30", "actor": "", "state": "售票中", "location": "MAO Livehouse北京", "low_price": "80", "high_price": "240"},
{"name": "幻想天空电子音乐派对 广州站", "city": "广州", "date": "2020.12.05-12.06", "actor": "", "state": "售票中", "location": "MAO Livehouse广州", "low_price": "69", "high_price": "169"},
{"name": "希望熬过一切,我们像星光一样璀璨 西安站", "city": "西安", "date": "2020.12.27 周日 20:30", "actor": "", "state": "售票中", "location": "西安创矩音乐现场", "low_price": "88", "high_price": "88"},
{"name": "2020圣诞超级枕头大战-全程高能一战入魂 昆明", "city": "昆明", "date": "2020.12.24 周四 20:00", "actor": "", "state": "售票中", "location": "MODERNSKY LAB(昆明店)", "low_price": "128", "high_price": "228"},
{"name": "与她生活节Pro 广州站", "city": "广州", "date": "2020.12.25 周五 20:00", "actor": "", "state": "售票中", "location": "MAO Livehouse广州", "low_price": "180", "high_price": "260"},
{"name": "2020.11.22 “热血高校”巡演西安站", "city": "西安", "date": "2020.11.22 周日 20:00", "actor": "", "state": "售票中", "location": "西演LIVE·光圈CLUB", "low_price": "50", "high_price": "88"},
{"name": "2020The Will On Kill“博弈轮”巡演 重庆站", "city": "重庆", "date": "2020.12.11 周五 20:00", "actor": "", "state": "售票中", "location": "重庆VOX LIVEHOUSE", "low_price": "100", "high_price": "190"},
{"name": "仙人掌喜剧 | 脱口秀小剧场", "city": "杭州", "date": "2020.12.11 周五", "actor": "", "state": "售票中", "location": "杭州大剧院", "low_price": "100", "high_price": "120"},
{"name": "SUMMER SUNSHINE乐队＜北京男孩＞巡演 上海站", "city": "上海", "date": "2020.12.12 周六 20:30", "actor": "", "state": "售票中", "location": "育音堂(凯旋路店)", "low_price": "80", "high_price": "80"},
{"name": "马潇与失眠症「你找到避雨的地方了吗？」2020巡演 苏州站", "city": "苏州", "date": "2020.11.27 周五 20:30", "actor": "", "state": "售票中", "location": "新光天地一楼", "low_price": "80", "high_price": "80"},
{"name": "景德镇文艺复兴乐队2020巡演 | 长沙站", "city": "长沙", "date": "2020.11.28 周六 20:00", "actor": "", "state": "售票中", "location": "MAO Livehouse长沙", "low_price": "100", "high_price": "120"},
{"name": "穿脑号迷航 | 解离的真实＆Sonicave 2020联合巡演 杭州站", "city": "杭州", "date": "2020.11.27 周五 20:30", "actor": "", "state": "售票中", "location": "MAO Livehouse杭州", "low_price": "80", "high_price": "140"},
{"name": "黑屋乐队2020巡演西安站", "city": "西安", "date": "2020.11.24 周二 20:00", "actor": "黑屋乐队", "state": "售票中", "location": "西安创矩音乐现场", "low_price": "68", "high_price": "68"},
{"name": "【海派情调】月圆花好-老上海经典金曲演唱会", "city": "上海", "date": "2020.12.04 周五 19:30", "actor": "", "state": "售票中", "location": "浦东大戏院", "low_price": "68", "high_price": "360"},
{"name": "“相约在冬季”2021海口群星演唱会", "city": "海口", "date": "2021.01.02 周六 20:00", "actor": "", "state": "售票中", "location": "海南国际会展中心5号馆", "low_price": "280", "high_price": "880"},
{"name": "猫头鹰喜剧周末脱口秀", "city": "上海", "date": "2020.11.27-12.26", "actor": "", "state": "售票中", "location": "THE BOXX新偶像演艺空间", "low_price": "150", "high_price": "150"},
{"name": "赵鹏行吟2020“橡皮”演唱会", "city": "合肥", "date": "2020.12.18 周五 19:30", "actor": "", "state": "售票中", "location": "合肥市瑶海大剧院", "low_price": "80", "high_price": "280"},
{"name": "烟把儿乐队2020【白日奏梦】省内巡演 济南站", "city": "济南", "date": "2020.12.04 周五 20:30", "actor": "", "state": "售票中", "location": "班卓音乐酒吧", "low_price": "100", "high_price": "100"},
{"name": "西南之南2020声音碎片巡演   昆明站", "city": "昆明", "date": "2020.11.27 周五 20:30", "actor": "", "state": "售票中", "location": "MODERNSKY LAB(昆明店)", "low_price": "180", "high_price": "180"},
{"name": "【全场畅饮】「孤独症候群」报警Alarm / 梅西合唱团 / LATTE&万事屋乐队", "city": "杭州", "date": "2020.12.18 周五 20:30", "actor": "", "state": "售票中", "location": "MAO Livehouse杭州", "low_price": "130", "high_price": "240"},
{"name": "THEBOXX酷乐秀", "city": "上海", "date": "2020.11.21 周六 20:00", "actor": "", "state": "售票中", "location": "THE BOXX新偶像演艺空间", "low_price": "88", "high_price": "88"},
{"name": "衡德地产|2020 “以梦为马”蔡俊杰个人演唱会", "city": "无锡", "date": "2020.12.19 周六 19:30", "actor": "", "state": "售票中", "location": "无锡演艺剧院", "low_price": "98", "high_price": "128"},
{"name": "闫泽欢“大好时光” 北京演唱会", "city": "北京", "date": "2020.12.04 周五 20:00", "actor": "", "state": "售票中", "location": "疆进酒·OMNI SPACE", "low_price": "200", "high_price": "260"},
{"name": "MiniG迷你机「赛博朋克进取巡演CYBERTOUR」上海站", "city": "上海", "date": "2020.12.18 周五 20:30", "actor": "MiniG迷你机", "state": "售票中", "location": "上海 LOFAS", "low_price": "100", "high_price": "180"},
{"name": "布朗尼秋日舞会 济南站", "city": "济南", "date": "2020.11.29 周日 20:30", "actor": "", "state": "售票中", "location": "班卓音乐酒吧", "low_price": "100", "high_price": "100"},
{"name": "[ 乐海方舟 ] 独家呈现：“寻找彩虹宝贝”2020巡演 北京站", "city": "北京", "date": "2020.11.27 周五 20:30", "actor": "彩虹男孩", "state": "售票中", "location": "MAO Livehouse北京", "low_price": "180", "high_price": "180"},
{"name": "The Roots乐队演出 | 用音乐温暖你的冬夜", "city": "武汉", "date": "2020.11.28 周六 20:30", "actor": "", "state": "售票中", "location": "UNlimit coffee&bar", "low_price": "40", "high_price": "60"},
{"name": "Monster KaR笠云岛2020巡演 杭州站", "city": "杭州", "date": "2020.11.22 周日 19:30", "actor": "", "state": "售票中", "location": "酒球会(9-Club)", "low_price": "120", "high_price": "150"},
{"name": "2020真的爱你-致敬BEYOND•黄家驹演唱会", "city": "西安", "date": "2020.11.28 周六 19:30", "actor": "", "state": "售票中", "location": "西安创矩音乐现场", "low_price": "180", "high_price": "480"},
{"name": "【秀动呈献】“怒马行歌，欢喜开场”羽果2020巡演 郑州站", "city": "郑州", "date": "2020.12.11 周五 20:30", "actor": "", "state": "售票中", "location": "7LIVEHOUSE", "low_price": "100", "high_price": "160"},
{"name": "FORGOTTEN CLUB 遗忘俱乐部 'WHERE SHALL WE GO' 2020巡演 哈尔滨站", "city": "哈尔滨", "date": "2021.01.02 周六 19:00", "actor": "", "state": "售票中", "location": "SUBLIVE", "low_price": "180", "high_price": "180"},
{"name": "2020跨年超级枕头大战-全程高能一战入魂", "city": "成都", "date": "2020.12.31 周四", "actor": "", "state": "售票中", "location": "新星(中国)音乐梦工厂", "low_price": "158", "high_price": "258"},
{"name": "Heaven On Fire天堂火金属音乐节上海站 激流金属专场", "city": "上海", "date": "2020.11.27 周五 20:00", "actor": "", "state": "售票中", "location": "MAO Livehouse上海", "low_price": "150", "high_price": "400"},
{"name": "11月27日【酒水畅饮】YEAH MAO夜猫俱乐部", "city": "成都", "date": "2020.11.27-11.28", "actor": "", "state": "售票中", "location": "MAO Livehouse成都", "low_price": "99", "high_price": "288"},
{"name": "宿羽阳四城梦游派对—广州站", "city": "广州", "date": "2020.12.25 周五 20:00", "actor": "宿羽阳", "state": "售票中", "location": "SD Livehouse", "low_price": "150", "high_price": "430"},
{"name": "帆布小镇“意外晴空中的浪漫出走”2020巡演Ⅱ 武汉站", "city": "武汉", "date": "2020.12.09 周三 20:30", "actor": "", "state": "售票中", "location": "L7 Livehouse(珞狮路南国大家装A2栋三层)", "low_price": "70", "high_price": "80"},
{"name": "2020真的爱你-致敬BEYOND·黄家驹演唱会 昆明", "city": "昆明", "date": "2020.12.25 周五 19:30", "actor": "", "state": "售票中", "location": "MODERNSKY LAB(昆明店)", "low_price": "180", "high_price": "480"},
{"name": "「脏手指五周年庆祝计划」大连站", "city": "大连", "date": "2020.11.27 周五 20:30", "actor": "", "state": "售票中", "location": "赫兹音乐空间(黑石礁店)", "low_price": "120", "high_price": "150"},
{"name": "惘闻《十万个为什么》新专辑巡演 济南站", "city": "济南", "date": "2020.12.28 周一 20:30", "actor": "惘闻乐队", "state": "售票中", "location": "济南 Caper Land雀跃之地音乐现场", "low_price": "150", "high_price": "150"},
{"name": "否极泰来——周云蓬与乐队巡演西安站", "city": "西安", "date": "2020.12.12 周六 20:00", "actor": "", "state": "售票中", "location": "星球工厂LIVEHOUSE", "low_price": "150", "high_price": "180"},
{"name": "宁夏、孟慧圆『私心』小巡演 杭州站", "city": "杭州", "date": "2020.11.25 周三 20:30", "actor": "", "state": "售票中", "location": "MAO Livehouse杭州", "low_price": "120", "high_price": "200"},
{"name": "刘思涵2020《爱，未满》新专辑巡演-重庆站", "city": "重庆", "date": "2021.01.17 周日 20:00", "actor": "", "state": "售票中", "location": "寅派动力", "low_price": "220", "high_price": "260"},
{"name": "海象爵士巡演南昌U2站", "city": "南昌", "date": "2020.11.22 周日 20:30", "actor": "", "state": "售票中", "location": "U2 livehouse", "low_price": "80", "high_price": "100"},
{"name": "果味VC 「 拥抱之城」2020巡演-北京站", "city": "北京", "date": "2020.11.22 周日 20:30", "actor": "果味VC", "state": "售票中", "location": "糖果TANGO-雍和宫店三层", "low_price": "120", "high_price": "120"},
{"name": "2020真的爱你-致敬BEYOND·黄家驹演唱会", "city": "广州", "date": "2020.12.19 周六 19:30", "actor": "", "state": "售票中", "location": "MAO Livehouse广州", "low_price": "180", "high_price": "580"},
{"name": "2020圣诞超级枕头大战-全程高能一战入魂", "city": "武汉", "date": "2020.12.25 周五", "actor": "", "state": "售票中", "location": "异次元·派对中心", "low_price": "128", "high_price": "228"},
{"name": "2020真的爱你-致敬BEYOND·黄家驹演唱会 最帅最接近原音的家驹传承者！", "city": "重庆", "date": "2020.11.27 周五 19:30", "actor": "", "state": "售票中", "location": "寅派动力", "low_price": "180", "high_price": "480"},
{"name": "Uncle Hu 2020「国民瞬间」全国巡演杭州站", "city": "杭州", "date": "2020.11.22 周日 20:30", "actor": "", "state": "售票中", "location": "Loopy", "low_price": "80", "high_price": "100"},
{"name": "Click#15疯客与舞蹈2020全国巡演（重庆站）", "city": "重庆", "date": "2021.01.26 周二 19:30", "actor": "", "state": "售票中", "location": "重庆大剧院", "low_price": "100", "high_price": "480"},
{"name": "外滩大会音乐节（线上）", "city": "北京", "date": "2020.09.24-12.23", "actor": "", "state": "售票中", "location": "请到大麦APP和优酷APP观看", "low_price": "0", "high_price": "0"},
{"name": "【珍珠剧场】最流行 * 千禧盛世经典音浪合集之夜", "city": "上海", "date": "2020.12.03-12.05", "actor": "", "state": "售票中", "location": "珍珠剧场The Pearl", "low_price": "120", "high_price": "120"},
{"name": "【摇滚兄弟 x MAO】冬日暖洋洋2 全场酒水无限畅饮摇滚之夜", "city": "北京", "date": "2020.12.06 周日 20:00", "actor": "", "state": "售票中", "location": "MAO Livehouse北京", "low_price": "100", "high_price": "300"},
{"name": "黑屋乐队 你大可不必假装快乐 2020巡演 成都站", "city": "成都", "date": "2020.11.22 周日 20:00", "actor": "黑屋乐队", "state": "售票中", "location": "成都迷笛音乐中心", "low_price": "68", "high_price": "88"},
{"name": "【雾川呈献】「冬日當歌 春風曲」晓月老板大连专场", "city": "大连", "date": "2020.12.19 周六 20:30", "actor": "", "state": "售票中", "location": "赫兹音乐空间(黑石礁店)", "low_price": "120", "high_price": "150"},
{"name": "热斑2020《NOT BAD》新专辑巡演-深圳站", "city": "深圳", "date": "2020.11.27 周五 20:30", "actor": "", "state": "售票中", "location": "深圳B10现场", "low_price": "80", "high_price": "80"},
{"name": "2020“直到世界尽头”经典动漫演唱会-回到热血青春年少时！-上海站", "city": "上海", "date": "2020.12.24 周四 19:30", "actor": "", "state": "售票中", "location": "万代南梦宫上海文化中心未来剧场", "low_price": "180", "high_price": "580"},
{"name": "《正当年少》2020陈硕子烟台演唱会", "city": "烟台", "date": "2020.11.28 周六 19:30", "actor": "", "state": "售票中", "location": "胶东文化广场(胶东剧院)", "low_price": "120", "high_price": "280"},
{"name": "葡萄合唱团PRO（葡萄不愤怒Ｘ新学校废物）联合巡演", "city": "成都", "date": "2021.01.08 周五 20:30", "actor": "", "state": "售票中", "location": "成都CH8冇独空间·完美店", "low_price": "150", "high_price": "150"},
{"name": "白举纲“白日梦境”2020全国巡演-杭州站", "city": "杭州", "date": "2020.11.22 周日 20:00", "actor": "白举纲", "state": "售票中", "location": "大麦66LiveHouse杭州", "low_price": "380", "high_price": "680"},
{"name": "【摇滚兄弟呈现】雷蒙斯乐队致敬演出", "city": "北京", "date": "2020.11.25 周三 20:00", "actor": "", "state": "售票中", "location": "疆进酒·OMNI SPACE", "low_price": "80", "high_price": "140"},
{"name": "「怦怦」刘莱斯2020巡演 苏州站", "city": "苏州", "date": "2020.11.21 周六 20:30", "actor": "", "state": "售票中", "location": "山丘livehouse红唐店", "low_price": "120", "high_price": "198"},
{"name": "AR刘夫阳【2020 非 - 流行说唱】巡演 重庆站", "city": "重庆", "date": "2020.12.05 周六 20:30", "actor": "", "state": "售票中", "location": "寅派动力", "low_price": "200", "high_price": "230"},
{"name": "「秋游要去动物园 Fall Reverb In The Zoo」2020动物园钉子户巡演 哈尔滨站", "city": "哈尔滨", "date": "2020.11.29 周日 19:00", "actor": "", "state": "售票中", "location": "SUBLIVE", "low_price": "80", "high_price": "100"},
{"name": "葡萄合唱团PRO(葡萄不愤怒X新学校废物合唱团)联合巡演 大连站", "city": "大连", "date": "2020.12.26 周六 20:30", "actor": "", "state": "售票中", "location": "赫兹音乐空间(黑石礁店)", "low_price": "150", "high_price": "280"},
{"name": "「酒水畅饮」太空漫游2020", "city": "成都", "date": "2020.12.06 周日 19:30", "actor": "", "state": "售票中", "location": "MAO Livehouse成都", "low_price": "109", "high_price": "109"},
{"name": "沼泽乐队《风和我》2020年巡演北京站", "city": "北京", "date": "2020.12.20 周日 20:30", "actor": "", "state": "售票中", "location": "疆进酒·OMNI SPACE", "low_price": "130", "high_price": "130"},
{"name": "日本指弹艺术家GIN 2020新专辑《Passage》吉他演奏会 杭州站", "city": "杭州", "date": "2020.12.20 周日 14:00", "actor": "", "state": "售票中", "location": "MAO Livehouse杭州", "low_price": "150", "high_price": "280"},
{"name": "「湖怪呈现」湖怪造音VOL.1", "city": "武汉", "date": "2020.11.21 周六 20:30", "actor": "", "state": "售票中", "location": "L7 Livehouse(珞狮路南国大家装A2栋三层)", "low_price": "30", "high_price": "30"},
{"name": "哥特复古SWING 邀你来晒月光浴！", "city": "上海", "date": "2020.11.28-11.29", "actor": "", "state": "售票中", "location": "MAO Livehouse上海", "low_price": "60", "high_price": "320"},
{"name": "宿羽阳四城梦游派对-深圳站", "city": "深圳", "date": "2020.12.24 周四 20:30", "actor": "", "state": "售票中", "location": "深圳 HOU LIVE", "low_price": "150", "high_price": "430"},
{"name": "龙神道乐队 “地下游乐场”2020巡演 上海站", "city": "上海", "date": "2020.12.05 周六 20:30", "actor": "", "state": "售票中", "location": "育音堂(音乐公园店)", "low_price": "100", "high_price": "100"},
{"name": "【秀动呈献】「怦怦」刘莱斯2020巡演 杭州站", "city": "杭州", "date": "2020.11.28 周六 20:30", "actor": "", "state": "售票中", "location": "MAO Livehouse杭州", "low_price": "120", "high_price": "198"},
{"name": "M-LAB | 呈献 扭曲机器 2020「永不止步 Never Stop」三城专场演出 上海站", "city": "上海", "date": "2020.11.28 周六 20:30", "actor": "", "state": "售票中", "location": "Modernsky lab上海", "low_price": "150", "high_price": "150"},
{"name": "经典动漫视听演唱会", "city": "苏州", "date": "2020.12.26 周六 19:30", "actor": "", "state": "售票中", "location": "高新区文体中心文化馆小剧场", "low_price": "90", "high_price": "150"},
{"name": "鹿先森「敬这伟大的良宵」巡演 重庆站", "city": "重庆", "date": "2020.12.26 周六 20:00", "actor": "鹿先森乐队", "state": "售票中", "location": "寅派动力", "low_price": "220", "high_price": "220"},
{"name": "【秀动呈献】Carsick Cars 2020“晕”巡演 厦门站", "city": "厦门", "date": "2020.11.21 周六 20:30", "actor": "", "state": "售票中", "location": "星巢越中心", "low_price": "180", "high_price": "180"},
{"name": "光辉岁月―致敬“BEYOND・黄家驹”纪念演唱会", "city": "合肥", "date": "2021.01.03 周日 19:40", "actor": "", "state": "售票中", "location": "安徽大剧院", "low_price": "80", "high_price": "280"},
{"name": "舟山 【万有音乐系】《“从心出发”王铮亮2020全国巡回演唱会》-舟山站", "city": "舟山", "date": "2020.12.05 周六 19:30", "actor": "", "state": "售票中", "location": "舟山普陀大剧院", "low_price": "180", "high_price": "380"},
{"name": "《倚石听声—石倚洁与美声男孩专场音乐会》", "city": "重庆", "date": "2020.11.25 周三 19:30", "actor": "", "state": "售票中", "location": "重庆大剧院", "low_price": "280", "high_price": "580"},
{"name": "《遇见爱情 · 平安夜邓丽君情歌演唱会—陈佳倾情演绎》", "city": "苏州", "date": "2020.12.24 周四 19:30", "actor": "", "state": "售票中", "location": "苏州聚橙尹山湖大剧院", "low_price": "50", "high_price": "380"},
{"name": "贰叁叁脱口秀丨周三/周四/周日小剧场演出", "city": "上海", "date": "2020.11.22-12.30", "actor": "", "state": "售票中", "location": "THE BOXX新偶像演艺空间", "low_price": "99", "high_price": "99"},
{"name": "“明天会更好”罗天翼与乐队武汉跨年音乐会", "city": "武汉", "date": "2021.01.02 周六 20:00", "actor": "", "state": "售票中", "location": "不晚IN TIME LIVE", "low_price": "100", "high_price": "120"},
{"name": "【全场畅饮】魔方城市派对日 - 改噪 - 激励器BOOST", "city": "上海", "date": "2020.11.21 周六 20:00", "actor": "", "state": "售票中", "location": "MAO Livehouse上海", "low_price": "160", "high_price": "160"},
{"name": "《光輝的歲月·紀念黃家駒逝世27載》巡迴演唱會", "city": "南宁", "date": "2020.11.29 周日 19:30", "actor": "", "state": "售票中", "location": "南宁意酒馆", "low_price": "168", "high_price": "228"},
{"name": "《Click#15疯客与舞蹈2.0巡演厦门站》", "city": "厦门", "date": "2021.01.18 周一 20:00", "actor": "", "state": "售票中", "location": "厦门嘉庚剧院大剧场", "low_price": "100", "high_price": "680"},
{"name": "NONG ARCHIVE TOUR PART.2 重庆站", "city": "重庆", "date": "2021.01.15 周五 20:30", "actor": "", "state": "售票中", "location": "寅派动力", "low_price": "200", "high_price": "200"},
{"name": "白举纲“白日梦境”2020全国巡演-北京站", "city": "北京", "date": "2020.12.25 周五 20:00", "actor": "白举纲", "state": "售票中", "location": "糖果TANGO-雍和宫店三层", "low_price": "380", "high_price": "680"},
{"name": "星球世纪DMC嘉年华", "city": "大连", "date": "2020.11.22 周日", "actor": "", "state": "售票中", "location": "东港大连国际会议中心一层展厅", "low_price": "79", "high_price": "355"},
{"name": "霓虹花园「再见威尔逊」新专辑巡演-长沙站", "city": "长沙", "date": "2020.12.04-12.05", "actor": "", "state": "售票中", "location": "46LIVEHOUSE", "low_price": "150", "high_price": "150"},
{"name": "白举纲“白日梦境”2020全国巡演-南京站", "city": "南京", "date": "2020.11.21 周六 20:00", "actor": "白举纲", "state": "售票中", "location": "南京-稻香音乐空间", "low_price": "380", "high_price": "680"},
{"name": "“下一站，旅程”张叶蕾2020巡回演唱会 宁波站", "city": "宁波", "date": "2020.11.28 周六 20:30", "actor": "", "state": "售票中", "location": "宁波灯塔音乐现场", "low_price": "120", "high_price": "120"},
{"name": "裘德“巡演的时候我要「缺席」” 重庆站", "city": "重庆", "date": "2020.12.06 周日 20:00", "actor": "", "state": "售票中", "location": "重庆VOX LIVEHOUSE", "low_price": "120", "high_price": "120"},
{"name": "光輝的歲月·紀念黃家駒逝世27载巡迴演唱會大連站", "city": "大连", "date": "2021.01.14 周四 20:30", "actor": "", "state": "售票中", "location": "赫兹音乐空间(黑石礁店)", "low_price": "118", "high_price": "188"},
{"name": "西游乐队2020北京专场演出", "city": "北京", "date": "2020.12.10 周四 20:00", "actor": "", "state": "售票中", "location": "MAO Livehouse北京", "low_price": "150", "high_price": "150"},
{"name": "12月27日 掌声响起来  大麦66Live house天津", "city": "天津", "date": "2020.12.27 周日 20:00", "actor": "", "state": "售票中", "location": "大麦66LiveHouse天津", "low_price": "128", "high_price": "128"},
{"name": "黑屋乐队 你大可不必假装快乐 2020巡演 天津站", "city": "天津", "date": "2020.11.28 周六 13:00", "actor": "黑屋乐队", "state": "售票中", "location": "大麦66LiveHouse天津", "low_price": "68", "high_price": "88"},
{"name": "Click#15疯客与舞蹈FUNK ＆ DANCE 2020巡演 青岛站", "city": "青岛", "date": "2020.12.26 周六 20:30", "actor": "", "state": "售票中", "location": "So.Downtown", "low_price": "160", "high_price": "160"},
{"name": "【星巢现场】Colorful Bar彩色文胸「大回环」巡演-上海站", "city": "上海", "date": "2020.12.06 周日 20:00", "actor": "", "state": "售票中", "location": "MAO Livehouse上海", "low_price": "100", "high_price": "120"},
{"name": "2020“直到世界尽头”经典动漫演唱会-回到热血青春年少时！", "city": "成都", "date": "2020.12.12 周六 19:30", "actor": "", "state": "售票中", "location": "乐空间Yue Space(原正火艺术中心6号馆)", "low_price": "180", "high_price": "380"},
{"name": "聚光灯周三周四周日爆笑脱口秀剧场", "city": "上海", "date": "2020.11.28-11.29", "actor": "", "state": "售票中", "location": "健力士醇黑坊", "low_price": "99", "high_price": "99"},
{"name": "2020圣诞超级枕头大战-全程高能一战入魂-深圳站", "city": "深圳", "date": "2020.12.25 周五", "actor": "", "state": "售票中", "location": "深圳市南山区A8音乐大厦二层A8Live", "low_price": "158", "high_price": "358"},
{"name": "【3Bangz$未来星B3Rich】失败经验分享  2020巡演广州站", "city": "广州", "date": "2021.01.02 周六 19:30", "actor": "", "state": "售票中", "location": "MAO Livehouse广州", "low_price": "150", "high_price": "299"},
{"name": "2020“平安夜一起来听歌”圣诞演唱会-唯有浪漫不可辜负", "city": "天津", "date": "2020.12.24 周四 19:30", "actor": "", "state": "售票中", "location": "大麦66LiveHouse天津", "low_price": "180", "high_price": "299"},
{"name": "与她生活节Pro 上海站", "city": "上海", "date": "2020.12.26 周六 20:00", "actor": "", "state": "售票中", "location": "MAO Livehouse上海", "low_price": "220", "high_price": "260"},
{"name": "「开心麻花」即兴剧团-即兴SHOW", "city": "成都", "date": "2020.11.28 周六 20:00", "actor": "", "state": "售票中", "location": "MAO Livehouse成都", "low_price": "100", "high_price": "880"},
{"name": "马潇与失眠症「你找到避雨的地方了吗？」2020巡演 常州站", "city": "常州", "date": "2020.11.28 周六 20:00", "actor": "", "state": "售票中", "location": "迷宫livehouse", "low_price": "80", "high_price": "80"},
{"name": "《光輝的歲月·紀念黃家駒逝世27載》巡迴演唱會广州站", "city": "广州", "date": "2020.11.25 周三 19:30", "actor": "", "state": "售票中", "location": "TU凸空间", "low_price": "168", "high_price": "228"},
{"name": "【秀动呈献】功夫胖dreamer巡演 天津站", "city": "天津", "date": "2020.11.21 周六 20:30", "actor": "", "state": "售票中", "location": "大麦66LiveHouse天津", "low_price": "220", "high_price": "220"},
{"name": "2020真的爱你-致敬BEYOND·黄家驹演唱会 最帅最接近原音的家驹传承者！", "city": "成都", "date": "2020.12.05 周六 19:30", "actor": "", "state": "售票中", "location": "乐空间Yue Space(原正火艺术中心6号馆)", "low_price": "180", "high_price": "480"},
{"name": "FORGOTTEN CLUB遗忘俱乐部‘WHERE SHALL WE GO’ 2020巡演 上海站", "city": "上海", "date": "2020.12.20 周日 20:00", "actor": "", "state": "售票中", "location": "Modernsky lab上海", "low_price": "180", "high_price": "180"},
{"name": "FORGOTTEN CLUB遗忘俱乐部‘WHERE SHALL WE GO’ 2020巡演 成都站", "city": "成都", "date": "2020.12.13 周日 20:00", "actor": "", "state": "售票中", "location": "成都CH8冇独空间·完美店", "low_price": "180", "high_price": "180"},
{"name": "肆囍 · 【Filter】2020巡演 好久不见 有新歌招待... ...北京站", "city": "北京", "date": "2020.12.13 周日 20:30", "actor": "", "state": "售票中", "location": "MAO Livehouse北京", "low_price": "100", "high_price": "190"},
{"name": "11月29日 打扰一下乐团“世界不会轻易崩塌”2020巡演", "city": "天津", "date": "2020.11.29 周日 20:00", "actor": "打扰一下", "state": "售票中", "location": "大麦66LiveHouse天津", "low_price": "160", "high_price": "280"},
{"name": "霓虹花园「再见威尔逊」新专辑巡演 | 厦门站", "city": "厦门", "date": "2020.12.19 周六 20:00", "actor": "", "state": "售票中", "location": "星巢越中心", "low_price": "150", "high_price": "150"},
{"name": "刺猬现场* 2020巡回演出 南京站", "city": "南京", "date": "2020.12.04 周五 20:00", "actor": "", "state": "售票中", "location": "南京-稻香音乐空间", "low_price": "328", "high_price": "328"},
{"name": "【星巢现场】Colorful Bar彩色文胸「大回环」巡演-杭州站", "city": "杭州", "date": "2020.12.05 周六 20:00", "actor": "", "state": "售票中", "location": "MAO Livehouse杭州", "low_price": "100", "high_price": "120"},
{"name": "霓虹花园「再见威尔逊」新专辑巡演 合肥站", "city": "合肥", "date": "2020.12.20 周日 20:00", "actor": "", "state": "售票中", "location": "ON THE WAY LIVEHOUSE", "low_price": "150", "high_price": "150"},
{"name": "2020圣诞超级枕头大战-全程高能一战入魂", "city": "北京", "date": "2020.12.24 周四", "actor": "", "state": "售票中", "location": "疆进酒·OMNI SPACE", "low_price": "168", "high_price": "268"},
{"name": "MOJOHAND2020 巡演 上海站", "city": "上海", "date": "2020.11.28 周六 20:00", "actor": "", "state": "售票中", "location": "上海 LOFAS", "low_price": "100", "high_price": "120"},
{"name": "《往后余生》《醒着醉》原唱——马良“理想世界”巡演-天津站", "city": "天津", "date": "2020.12.26 周六 20:30", "actor": "马良", "state": "售票中", "location": "二十年音乐现场", "low_price": "120", "high_price": "150"},
{"name": "鹿先森「敬这伟大的良宵」巡演 西安站", "city": "西安", "date": "2020.12.19 周六 20:00", "actor": "鹿先森乐队", "state": "售票中", "location": "果核剧场", "low_price": "220", "high_price": "220"},
{"name": "HIGB三周年-大连专场", "city": "大连", "date": "2020.11.21 周六 20:00", "actor": "", "state": "售票中", "location": "赫兹音乐空间(黑石礁店)", "low_price": "120", "high_price": "499"},
{"name": "鹿先森「敬这伟大的良宵」巡演 苏州站", "city": "苏州", "date": "2020.12.12 周六", "actor": "鹿先森乐队", "state": "售票中", "location": "苏州阳澄国际电竞馆", "low_price": "180", "high_price": "360"},
{"name": "白举纲“白日梦境”2020全国巡演-天津站", "city": "天津", "date": "2020.12.26 周六 20:00", "actor": "白举纲", "state": "售票中", "location": "大麦66LiveHouse天津", "low_price": "380", "high_price": "680"},
{"name": "乐合喜剧脱口秀｜爆笑开放麦", "city": "上海", "date": "2020.11.22-11.29", "actor": "", "state": "售票中", "location": "静安康铂酒店", "low_price": "49", "high_price": "90"},
{"name": "【惊喜脱口秀】周三夜现场单口谐星派对+开放麦", "city": "天津", "date": "2020.12.09 周三", "actor": "", "state": "售票中", "location": "津湾大剧院小剧场", "low_price": "80", "high_price": "160"},
{"name": "聚橙主办｜“从心出发”王铮亮个人全国巡回演唱会", "city": "成都", "date": "2020.11.29 周日 19:30", "actor": "", "state": "售票中", "location": "成都城市音乐厅·歌剧厅", "low_price": "180", "high_price": "380"},
{"name": "【济南】打扰一下乐团“世界不会轻易崩塌”全国巡演济南站", "city": "济南", "date": "2020.12.12 周六 20:00", "actor": "打扰一下", "state": "售票中", "location": "济南 Caper Land雀跃之地音乐现场", "low_price": "160", "high_price": "280"},
{"name": "宿羽阳四城梦游派对-上海站", "city": "上海", "date": "2020.12.31 周四 20:00", "actor": "", "state": "售票中", "location": "上海 LOFAS", "low_price": "150", "high_price": "430"},
{"name": "徐海俏·2020|游离片刻 12城特别专场 广州站", "city": "广州", "date": "2020.11.28 周六 20:00", "actor": "", "state": "售票中", "location": "TU凸空间", "low_price": "100", "high_price": "120"},
{"name": "冬季摇滚大火锅 Hot Pot Rock Show！", "city": "成都", "date": "2020.12.04 周五 19:30", "actor": "", "state": "售票中", "location": "成都迷笛音乐中心", "low_price": "60", "high_price": "150"},
{"name": "惘闻《十万个为什么》新专辑巡演 大连站", "city": "大连", "date": "2021.01.01 周五 20:30", "actor": "惘闻乐队", "state": "售票中", "location": "赫兹音乐空间(黑石礁店)", "low_price": "180", "high_price": "180"},
{"name": "年轻的朋友 Vol.01", "city": "杭州", "date": "2020.12.26 周六 20:00", "actor": "", "state": "售票中", "location": "MAO Livehouse杭州", "low_price": "150", "high_price": "150"},
{"name": "光輝的歲月·紀念黃家駒逝世27载巡迴演唱會厦门站", "city": "厦门", "date": "2020.11.24 周二 19:30", "actor": "", "state": "售票中", "location": "RealLive And Books", "low_price": "168", "high_price": "228"},
{"name": "裘德“巡演的时候我要「缺席」” 成都站", "city": "成都", "date": "2020.12.05 周六 20:00", "actor": "", "state": "售票中", "location": "MAO Livehouse成都", "low_price": "120", "high_price": "120"},
{"name": "徐海俏·2020|游离片刻 12城特别专场 深圳站", "city": "深圳", "date": "2020.11.29 周日 20:00", "actor": "", "state": "售票中", "location": "深圳 HOU LIVE", "low_price": "100", "high_price": "100"},
{"name": "葡萄合唱团PRO(葡萄不愤怒X新学校废物合唱团)联合巡演 郑州站", "city": "郑州", "date": "2020.11.29 周日 20:30", "actor": "", "state": "售票中", "location": "7LIVEHOUSE", "low_price": "150", "high_price": "150"},
{"name": "AR刘夫阳【2020 非 - 流行说唱】巡演 南宁站", "city": "南宁", "date": "2020.11.21 周六 20:30", "actor": "", "state": "售票中", "location": "南宁意酒馆", "low_price": "200", "high_price": "230"},
{"name": "《往后余生》《醒着醉》原唱——马良“理想世界”巡演-杭州站", "city": "杭州", "date": "2020.12.13 周日 20:30", "actor": "马良", "state": "售票中", "location": "MAO Livehouse杭州", "low_price": "120", "high_price": "120"},
{"name": "【秀动呈献】「怦怦」刘莱斯2020巡演 南京站", "city": "南京", "date": "2020.12.05 周六 20:30", "actor": "", "state": "售票中", "location": "南京-稻香音乐空间", "low_price": "120", "high_price": "198"},
{"name": "武汉2020“何大河与苏紫旭《日出》”跨年专场", "city": "武汉", "date": "2020.12.31 周四 20:30", "actor": "", "state": "售票中", "location": "不晚IN TIME LIVE", "low_price": "198", "high_price": "248"},
{"name": "【航海时代】三等舱里得我们！ 花墙FancyWall / 大象无形乐队 / 白日密语 / 汤乐队", "city": "北京", "date": "2020.11.22 周日 20:00", "actor": "", "state": "售票中", "location": "MAO Livehouse北京", "low_price": "130", "high_price": "240"},
{"name": "TAI LIVE圣诞音乐汇", "city": "上海", "date": "2020.12.25 周五 20:00", "actor": "", "state": "售票中", "location": "Modernsky lab上海", "low_price": "238", "high_price": "388"},
{"name": "11.25 周三脱口秀 南京稻香音乐空间", "city": "南京", "date": "2020.11.25 周三 20:00", "actor": "", "state": "售票中", "location": "南京-稻香音乐空间", "low_price": "80", "high_price": "100"},
{"name": "贰拾肆摇滚派对一周年", "city": "长沙", "date": "2020.12.04 周五 20:00", "actor": "", "state": "售票中", "location": "MAO Livehouse长沙", "low_price": "88", "high_price": "200"},
{"name": "【ONE OF U利】重型音乐节", "city": "北京", "date": "2020.11.22 周日 20:00", "actor": "", "state": "售票中", "location": "疆进酒·OMNI SPACE", "low_price": "150", "high_price": "180"},
{"name": "《走歌人20》暗杠巡演 苏州站", "city": "苏州", "date": "2020.12.13 周日 20:30", "actor": "", "state": "售票中", "location": "山丘livehouse红唐店", "low_price": "180", "high_price": "180"},
{"name": "【齿轮现场】萬重乐队&冥葬乐队Brain Oxygenation", "city": "沈阳", "date": "2020.12.06 周日 19:00", "actor": "", "state": "售票中", "location": "1905LIVEHOUSE音乐现场", "low_price": "120", "high_price": "150"},
{"name": "光輝的歲月·紀念黃家駒逝世27载巡迴演唱會青岛站", "city": "青岛", "date": "2020.11.22 周日 20:30", "actor": "", "state": "售票中", "location": "CaperLand雀跃之地(青岛)", "low_price": "118", "high_price": "188"},
{"name": "【珍珠剧场】第六届珍珠室内圣诞集市 狂欢节", "city": "上海", "date": "2020.11.28-11.29", "actor": "", "state": "售票中", "location": "珍珠剧场The Pearl", "low_price": "20", "high_price": "20"},
{"name": "2020“直到世界尽头”经典动漫演唱会-回到热血青春年少时！", "city": "广州", "date": "2021.01.01 周五 19:30", "actor": "", "state": "售票中", "location": "MAO Livehouse广州", "low_price": "180", "high_price": "380"},
{"name": "鼓楼西特邀·《哈姆雷特》", "city": "北京", "date": "2021.01.27-01.31", "actor": "", "state": "售票中", "location": "鼓楼西剧场", "low_price": "100", "high_price": "380"},
{"name": "西游乐队2020巡演—沈阳站", "city": "沈阳", "date": "2020.11.26 周四 19:30", "actor": "", "state": "售票中", "location": "1905LIVEHOUSE音乐现场", "low_price": "100", "high_price": "100"},
{"name": "黑撒乐队“狂欢时代”2020巡演 上海站", "city": "上海", "date": "2020.11.29 周日 20:30", "actor": "", "state": "售票中", "location": "Modernsky lab上海", "low_price": "120", "high_price": "150"},
{"name": "脆莓2020年“带我走”巡演沈阳站", "city": "沈阳", "date": "2020.12.19 周六 19:30", "actor": "", "state": "售票中", "location": "原料库livehouse", "low_price": "100", "high_price": "100"},
{"name": "直到世界尽头-8090经典动漫演唱会", "city": "北京", "date": "2020.12.04 周五 19:30", "actor": "", "state": "售票中", "location": "糖果TANGO-雍和宫店三层", "low_price": "180", "high_price": "580"},
{"name": "黑屋乐队2020巡演|你大可不必假装快乐—青岛站", "city": "青岛", "date": "2020.11.27 周五 20:00", "actor": "黑屋乐队", "state": "售票中", "location": "So.Downtown", "low_price": "68", "high_price": "88"},
{"name": "12.29龍錦2020-2021跨年巡演 宁波", "city": "宁波", "date": "2020.12.29 周二 20:30", "actor": "", "state": "售票中", "location": "CMKLive-House(城门口艺术空间)", "low_price": "80", "high_price": "80"},
{"name": "刘思涵 爱，未满巡回演唱会-深圳站", "city": "深圳", "date": "2020.12.20 周日 19:30", "actor": "刘思涵", "state": "售票中", "location": "深圳 HOU LIVE", "low_price": "220", "high_price": "360"},
{"name": "2020圣诞超级枕头大战-全程高能一战入魂", "city": "广州", "date": "2020.12.25 周五", "actor": "", "state": "售票中", "location": "TU凸空间", "low_price": "128", "high_price": "228"},
{"name": "12月25日 麦田音乐「No Bounds」系列 VOL.3", "city": "天津", "date": "2020.12.25 周五 20:30", "actor": "", "state": "售票中", "location": "大麦66LiveHouse天津", "low_price": "66", "high_price": "288"},
{"name": "白举纲“白日梦境”2020全国巡演-成都站", "city": "成都", "date": "2020.12.20 周日 20:00", "actor": "白举纲", "state": "售票中", "location": "MAO Livehouse成都", "low_price": "380", "high_price": "680"},
{"name": "日本指弹艺术家GIN 2020新专辑《Passage》吉他演奏会巡演 南京站", "city": "南京", "date": "2020.12.19 周六 14:00", "actor": "", "state": "售票中", "location": "南京-稻香音乐空间", "low_price": "150", "high_price": "280"},
{"name": "幻想天空电子音乐派对 深圳站", "city": "深圳", "date": "2020.11.28-11.29", "actor": "", "state": "售票中", "location": "深圳 HOU LIVE", "low_price": "69", "high_price": "99"},
{"name": "仙人掌喜剧 | 脱口秀开放麦", "city": "杭州", "date": "2020.11.26-12.24", "actor": "", "state": "售票中", "location": "杭州大剧院", "low_price": "19.9", "high_price": "19.9"},
{"name": "【BEEHIVE】Say What?? 他们说我抄了GALI和高天佐", "city": "上海", "date": "2020.11.28-11.29", "actor": "", "state": "售票中", "location": "BEEHIVE", "low_price": "180", "high_price": "260"},
{"name": "2020超级枕头大战 南京站", "city": "南京", "date": "2020.12.24 周四", "actor": "", "state": "售票中", "location": "南京-稻香音乐空间", "low_price": "128", "high_price": "428"},
{"name": "11.27 Click#15疯客与舞蹈FUNK＆DANCE 2020巡演 宁波站", "city": "宁波", "date": "2020.11.27 周五 20:30", "actor": "", "state": "售票中", "location": "宁波星巢剧场", "low_price": "160", "high_price": "160"},
{"name": "“从心出发”王铮亮个人全国巡回演唱会", "city": "石家庄", "date": "2020.12.12 周六 19:30", "actor": "", "state": "售票中", "location": "石家庄大剧院大剧场", "low_price": "180", "high_price": "380"},
{"name": "刘思涵 爱，未满巡回演唱会-北京站", "city": "北京", "date": "2020.12.18 周五 20:00", "actor": "刘思涵", "state": "售票中", "location": "糖果TANGO-雍和宫店三层", "low_price": "220", "high_price": "360"},
{"name": "安子与九妹“等你”2020全国巡演 南京站", "city": "南京", "date": "2020.12.04 周五 20:00", "actor": "", "state": "售票中", "location": "南京八度空间", "low_price": "100", "high_price": "120"},
{"name": "【中国新说唱、说唱听我的 人气选手】 出来玩er·全国巡演 成都站", "city": "成都", "date": "2020.12.26 周六 20:00", "actor": "", "state": "售票中", "location": "成都CH8冇独空间·完美店", "low_price": "220", "high_price": "380"},
{"name": "宿羽阳四城梦游派对-北京站", "city": "北京", "date": "2021.01.01 周五 20:00", "actor": "", "state": "售票中", "location": "MAO Livehouse北京", "low_price": "150", "high_price": "220"},
{"name": "橘子脱口秀|周三、周日精品Live", "city": "上海", "date": "2020.11.22-12.30", "actor": "", "state": "售票中", "location": "listen live house(静安店)", "low_price": "99", "high_price": "189"},
{"name": "白举纲“白日梦境”2020全国巡演-上海站", "city": "上海", "date": "2020.12.18 周五 20:00", "actor": "白举纲", "state": "售票中", "location": "万代南梦宫上海文化中心梦想剧场", "low_price": "380", "high_price": "680"},
{"name": "2020“平安夜一起来听歌”圣诞演唱会-唯有浪漫不可辜负", "city": "上海", "date": "2020.12.24 周四 19:30", "actor": "", "state": "售票中", "location": "Modernsky lab上海", "low_price": "180", "high_price": "580"},
{"name": "稻香音乐空间两周年庆•岛屿心情特邀专场", "city": "南京", "date": "2020.11.23 周一 20:30", "actor": "", "state": "售票中", "location": "南京-稻香音乐空间", "low_price": "200", "high_price": "260"},
{"name": "裘德“巡演的时候我要「缺席」” 广州站", "city": "广州", "date": "2021.01.09 周六 20:00", "actor": "", "state": "售票中", "location": "中央车站展演中心", "low_price": "120", "high_price": "120"},
{"name": "【全场畅饮】夜猫俱乐部：赛博蒸汽澡堂｜志国夜总会蒸汽派对 北京站", "city": "北京", "date": "2020.11.27-11.28", "actor": "", "state": "售票中", "location": "MAO Livehouse北京", "low_price": "88", "high_price": "200"},
{"name": "刘思涵《爱，未满》巡回演唱会-广州站", "city": "广州", "date": "2021.01.16 周六 20:00", "actor": "", "state": "售票中", "location": "太空间livehouse", "low_price": "150", "high_price": "220"},
{"name": "脆莓2020年“带我走”巡演 哈尔滨站", "city": "哈尔滨", "date": "2020.12.20 周日 19:00", "actor": "", "state": "售票中", "location": "SUBLIVE", "low_price": "80", "high_price": "100"},
{"name": "【摇滚兄弟年度巨献】一晃二十年摇滚演唱会", "city": "北京", "date": "2020.12.19 周六 18:30", "actor": "", "state": "售票中", "location": "MAO Livehouse北京", "low_price": "160", "high_price": "299"},
{"name": "Click#15疯客与舞蹈FUNK ＆ DANCE 2020巡演   成都站", "city": "成都", "date": "2020.11.22 周日 20:00", "actor": "", "state": "售票中", "location": "成都麓湖水上剧场", "low_price": "200", "high_price": "200"},
{"name": "光輝的歲月·紀念黃家駒逝世27载巡迴演唱會上海站", "city": "上海", "date": "2020.12.17 周四 19:30", "actor": "", "state": "售票中", "location": "MAO Livehouse上海", "low_price": "168", "high_price": "228"},
{"name": "鹿先森「敬这伟大的良宵」巡演 天津站", "city": "天津", "date": "2020.11.28 周六 20:00", "actor": "鹿先森乐队", "state": "售票中", "location": "大麦66LiveHouse天津", "low_price": "220", "high_price": "220"},
{"name": "2020漫游绿岛音乐节", "city": "重庆", "date": "2020.11.27-11.28", "actor": "", "state": "售票中", "location": "MAO Livehouse重庆", "low_price": "30", "high_price": "280"},
{"name": "“特别的礼物”新年音乐会", "city": "佛山", "date": "2020.12.24-12.25", "actor": "", "state": "售票中", "location": "佛山国际体育文化演艺中心副馆", "low_price": "180", "high_price": "520"},
{"name": "二氧化碳歌舞厅——解压大作战", "city": "无锡", "date": "2020.11.21 周六 20:00", "actor": "", "state": "售票中", "location": "寅派动力(无锡)新文化空间", "low_price": "120", "high_price": "120"},
{"name": "【万有音乐系】“从心出发”王铮亮2020全国巡回演唱会-广州站", "city": "广州", "date": "2020.11.27 周五 20:00", "actor": "", "state": "售票中", "location": "太空间livehouse", "low_price": "280", "high_price": "280"},
{"name": "【全场畅饮】夜猫俱乐部", "city": "北京", "date": "2020.11.28-11.29", "actor": "", "state": "售票中", "location": "MAO Livehouse北京", "low_price": "70", "high_price": "200"},
{"name": "绿巴士2020失眠巴士旅馆巡演 长沙站", "city": "长沙", "date": "2020.11.21 周六 20:30", "actor": "", "state": "售票中", "location": "MAO Livehouse长沙", "low_price": "100", "high_price": "100"},
{"name": "【星巢现场·跳水冠军】下半场 法兹+肆囍+LeeyOn李昂 南京站", "city": "南京", "date": "2020.11.29 周日 20:00", "actor": "", "state": "售票中", "location": "欧拉艺术空间", "low_price": "180", "high_price": "220"},
{"name": "《光輝的歲月·紀念黃家駒逝世27載》巡迴演唱會深圳站", "city": "深圳", "date": "2020.11.27 周五 19:30", "actor": "", "state": "售票中", "location": "龙岗文化中心B区一楼迷笛LIVE HOUSE", "low_price": "168", "high_price": "228"},
{"name": "黑撒乐队“狂欢时代”2020巡演－西安站", "city": "西安", "date": "2020.12.05 周六 20:30", "actor": "", "state": "售票中", "location": "星球工厂LIVEHOUSE", "low_price": "120", "high_price": "120"},
{"name": "AIA呈献「MY Gratitude 25杨千嬅演唱会2020」", "city": "中国香港", "date": "2020.12.23-2021.01.01", "actor": "杨千嬅", "state": "售票中", "location": "香港体育馆", "low_price": "380", "high_price": "980"},
{"name": "打扰一下乐团 2020“世界不会轻易崩塌”全国巡演--青岛站", "city": "青岛", "date": "2020.12.11 周五 20:00", "actor": "", "state": "售票中", "location": "So.Downtown", "low_price": "160", "high_price": "280"},
{"name": "11.25 周三脱口秀小剧场", "city": "南京", "date": "2020.11.25 周三 20:00", "actor": "", "state": "售票中", "location": "南京八度空间", "low_price": "80", "high_price": "100"},
{"name": "#免票#《感恩节》济南民谣女声专场", "city": "济南", "date": "2020.11.25 周三 20:00", "actor": "", "state": "售票中", "location": "班卓音乐酒吧", "low_price": "0", "high_price": "0"},
{"name": "2020圣诞超级枕头大战-全程高能一战入魂-上海站", "city": "上海", "date": "2020.12.25 周五", "actor": "", "state": "售票中", "location": "万代南梦宫上海文化中心未来剧场", "low_price": "168", "high_price": "368"},
{"name": "一路飘绿 开往寒冬 曾雪雅 “我凉了” 2020巡演 南京站", "city": "南京", "date": "2021.01.10 周日 20:00", "actor": "曾雪雅", "state": "售票中", "location": "欧拉艺术空间", "low_price": "80", "high_price": "80"},
{"name": "11月22日 2020 地下8英里城市赛 天津站", "city": "天津", "date": "2020.11.22 周日 20:00", "actor": "", "state": "售票中", "location": "大麦66LiveHouse天津", "low_price": "168", "high_price": "168"},
{"name": "【全场畅饮】夜猫俱乐部", "city": "杭州", "date": "2020.11.27-11.28", "actor": "", "state": "售票中", "location": "MAO Livehouse杭州", "low_price": "100", "high_price": "160"},
{"name": "活在现场 开箱公演", "city": "北京", "date": "2020.11.27 周五 20:00", "actor": "", "state": "售票中", "location": "糖果TANGO-雍和宫店三层", "low_price": "300", "high_price": "300"},
{"name": "【中国新说唱、说唱听我的 人气选手】 出来玩er·全国巡演 上海站", "city": "上海", "date": "2020.12.11 周五 20:00", "actor": "", "state": "售票中", "location": "MAO Livehouse上海", "low_price": "220", "high_price": "380"},
{"name": "【中国新说唱、说唱听我的 人气选手】 出来玩er·全国巡演 杭州站", "city": "杭州", "date": "2021.01.22 周五 20:00", "actor": "", "state": "售票中", "location": "大麦66LiveHouse杭州", "low_price": "220", "high_price": "380"},
{"name": "2020“平安夜一起来听歌”圣诞演唱会-唯有浪漫不可辜负", "city": "武汉", "date": "2020.12.24 周四 19:30", "actor": "", "state": "售票中", "location": "L7 Livehouse(珞狮路南国大家装A2栋三层)", "low_price": "180", "high_price": "280"},
{"name": "2020真的爱你-致敬BEYOND•黄家驹演唱会-深圳站", "city": "深圳", "date": "2020.12.18 周五 19:30", "actor": "", "state": "售票中", "location": "深圳市南山区A8音乐大厦二层A8Live", "low_price": "180", "high_price": "580"},
{"name": "【星巢现场】Colorful Bar彩色文胸「大回环」巡演 南京站", "city": "南京", "date": "2020.12.24 周四 20:00", "actor": "", "state": "售票中", "location": "欧拉艺术空间", "low_price": "100", "high_price": "120"},
{"name": "刘思涵 爱，未满巡回演唱会-上海站", "city": "上海", "date": "2020.12.13 周日 19:30", "actor": "刘思涵", "state": "售票中", "location": "MAO Livehouse上海", "low_price": "220", "high_price": "360"},
{"name": "【中国新说唱  说唱听我的 人气选手】出来玩er·全国巡演 西安站", "city": "西安", "date": "2020.11.21 周六 20:30", "actor": "", "state": "售票中", "location": "星球工厂LIVEHOUSE", "low_price": "220", "high_price": "380"},
{"name": "《往后余生》《醒着醉》原唱——马良“理想世界”巡演 苏州站", "city": "苏州", "date": "2020.12.12 周六 20:30", "actor": "马良", "state": "售票中", "location": "山丘livehouse红唐店", "low_price": "120", "high_price": "150"},
{"name": "【珍珠剧场】阿黛尔&艾德希兰 致敬音乐会", "city": "上海", "date": "2020.12.02-12.30", "actor": "", "state": "售票中", "location": "珍珠剧场The Pearl", "low_price": "120", "high_price": "120"},
{"name": "雅居乐清水湾·2020海南草莓音乐节", "city": "陵水", "date": "2020.11.28-11.29", "actor": "痛仰乐队、重塑雕像的权利、达达乐队、五条人、大波浪、达闻西、满舒克、闪星乐队", "state": "售票中", "location": "雅居乐清水湾旅游区沙滩", "low_price": "300", "high_price": "540"},
{"name": "JD《低调先生》2020巡演沈阳站", "city": "沈阳", "date": "2020.11.22 周日 19:30", "actor": "", "state": "售票中", "location": "1905LIVEHOUSE音乐现场", "low_price": "180", "high_price": "230"},
{"name": "鹿先森「敬这伟大的良宵」巡演 杭州站", "city": "杭州", "date": "2020.12.05 周六 20:00", "actor": "鹿先森乐队", "state": "售票中", "location": "大麦66LiveHouse杭州", "low_price": "220", "high_price": "220"},
{"name": "第19届330金属音乐节", "city": "北京", "date": "2020.12.19 周六 15:00", "actor": "", "state": "售票中", "location": "糖果TANGO-雍和宫店三层", "low_price": "230", "high_price": "330"},
{"name": "打扰一下乐团 2020“世界不会轻易崩塌”巡演北京站", "city": "北京", "date": "2020.12.19 周六 20:00", "actor": "打扰一下", "state": "售票中", "location": "疆进酒·OMNI SPACE", "low_price": "160", "high_price": "280"},
{"name": "12.2 周三脱口秀 南京稻香音乐空间", "city": "南京", "date": "2020.12.02 周三 20:00", "actor": "", "state": "售票中", "location": "南京-稻香音乐空间", "low_price": "80", "high_price": "100"},
{"name": "暗杠“走歌人20”全国巡演 广州站", "city": "广州", "date": "2020.11.29 周日 20:30", "actor": "", "state": "售票中", "location": "MAO Livehouse广州", "low_price": "180", "high_price": "180"},
{"name": "导演到场交流|李一凡导演作品展", "city": "成都", "date": "2020.11.28 周六", "actor": "", "state": "售票中", "location": "梵木创艺区·正火艺术中心1号馆", "low_price": "60", "high_price": "150"},
{"name": "I LIKE 赵珂20³生日会", "city": "杭州", "date": "2020.12.03 周四 19:30", "actor": "", "state": "售票中", "location": "大麦66LiveHouse杭州", "low_price": "559", "high_price": "1020"},
{"name": "鹰之娱乐周年庆活动廖效浓特别专场", "city": "长春", "date": "2020.12.12 周六 19:00", "actor": "", "state": "售票中", "location": "Y-LIVE鹰之娱乐音乐现场", "low_price": "200", "high_price": "280"},
{"name": "直到世界尽头-8090经典动漫演唱会 南京站", "city": "南京", "date": "2020.12.19 周六 19:30", "actor": "", "state": "售票中", "location": "南京-稻香音乐空间", "low_price": "180", "high_price": "480"},
{"name": "【重志成诚】VOL.2中国新说唱X乐队的夏天X说唱听我的：液氧，深蓝，霾晦，秃子，画皮，王老板", "city": "北京", "date": "2020.12.20 周日 18:00", "actor": "", "state": "售票中", "location": "MAO Livehouse北京", "low_price": "168", "high_price": "298"}
]